[
    {
      "name": "Grey, Meredith",
      "certification": "MD",
      "specialty": "Primary Care",
      "departments": [
        {
          "name": "Sloan Primary Care",
          "phone": "(710) 555-2070",
          "address": "202 Maple St, Winston-Salem, NC 27101",
          "days": ["Monday", "Tuesday", "Wednesday", "Thursday", "Friday"],
          "hours": "9am-5pm"
        }
      ]
    },
    {
      "name": "House, Gregory",
      "certification": "MD",
      "specialty": "Orthopedics",
      "departments": [
        {
          "name": "PPTH Orthopedics",
          "phone": "(445) 555-6205",
          "address": "101 Pine St, Greensboro, NC 27401",
          "days": ["Monday", "Tuesday", "Wednesday"],
          "hours": "9am-5pm"
        },
        {
          "name": "Jefferson Hospital",
          "phone": "(215) 555-6123",
          "address": "202 Maple St, Claremont, NC 28610",
          "days": ["Thursday", "Friday"],
          "hours": "9am-5pm"
        }
      ]
    },
    {
      "name": "Yang, Cristina",
      "certification": "MD",
      "specialty": "Surgery",
      "departments": [
        {
          "name": "Seattle Grace Cardiac Surgery",
          "phone": "(710) 555-3082",
          "address": "456 Elm St, Charlotte, NC 28202",
          "days": ["Monday", "Tuesday", "Wednesday", "Thursday", "Friday"],
          "hours": "9am-5pm"
        }
      ]
    },
    {
      "name": "Perry, Chris",
      "certification": "FNP",
      "specialty": "Primary Care",
      "departments": [
        {
          "name": "Sacred Heart Surgical Department",
          "phone": "(339) 555-7480",
          "address": "123 Main St, Raleigh, NC 27601",
          "days": ["Monday", "Tuesday", "Wednesday"],
          "hours": "9am-5pm"
        }
      ]
    },
    {
      "name": "Brennan, Temperance",
      "certification": "PhD, MD",
      "specialty": "Orthopedics",
      "departments": [
        {
          "name": "Jefferson Hospital",
          "phone": "(215) 555-6123",
          "address": "202 Maple St, Claremont, NC 28610",
          "days": ["Tuesday", "Wednesday", "Thursday"],
          "hours": "10am-4pm"
        }
      ]
    }
  ]
